,pa_id,poi_common_id,poi_branch,poi_addr_city,poi_postcode,poi_city,poi_addr_street,poi_addr_housenumber,poi_conscriptionnumber,poi_geom,original,poi_website,poi_ref,poi_phone,poi_email,poi_opening_hours_nonstop,poi_opening_hours_mo_open,poi_opening_hours_tu_open,poi_opening_hours_we_open,poi_opening_hours_th_open,poi_opening_hours_fr_open,poi_opening_hours_sa_open,poi_opening_hours_su_open,poi_opening_hours_mo_close,poi_opening_hours_tu_close,poi_opening_hours_we_close,poi_opening_hours_th_close,poi_opening_hours_fr_close,poi_opening_hours_sa_close,poi_opening_hours_su_close,poi_hash,poi_created,poi_updated,poi_deleted,poi_lat,poi_lon,pc_id,poi_name,poi_type,poi_tags,poi_url_base,poi_code
5362,5330,22,Tompa,2469,6422,Tompa,,,,POINT (46.2277 19.5359),Tompa  Hunyadi street 127.,,,0.0,,True,,,,,,,,,,,,,,,,2018-06-14 18:06:55.196494+00:00,,,46.2277,19.5359,22,Mobil Petrol,fuel,"{'amenity': 'fuel', 'brand': 'Mobil Petrol', 'payment:cash': 'yes', 'payment:debit_cards': 'yes', 'fuel:diesel': 'yes', 'fuel:octane_95': 'yes'}",https://www.shell.hu,humobpefu
5363,5344,22,Petőfiszállás A,0,6113,Petőfiszállás A,,,,POINT (46.6076 19.8413),M5 motorway  121 km  left side,,,0.0,,True,,,,,,,,,,,,,,,,2018-06-14 18:06:55.196494+00:00,,,46.6076,19.8413,22,Mobil Petrol,fuel,"{'amenity': 'fuel', 'brand': 'Mobil Petrol', 'payment:cash': 'yes', 'payment:debit_cards': 'yes', 'fuel:diesel': 'yes', 'fuel:octane_95': 'yes'}",https://www.shell.hu,humobpefu
5364,5357,22,Fülöpszállás,2392,6085,Fülöpszállás,,,,POINT (46.8464 19.2978),Fülöpszállás  Kurjantópuszta  no. 52. highway,,,0.0,,True,,,,,,,,,,,,,,,,2018-06-14 18:06:55.196494+00:00,,,46.8464,19.2978,22,Mobil Petrol,fuel,"{'amenity': 'fuel', 'brand': 'Mobil Petrol', 'payment:cash': 'yes', 'payment:debit_cards': 'yes', 'fuel:diesel': 'yes', 'fuel:octane_95': 'yes'}",https://www.shell.hu,humobpefu
5365,5368,22,Szentgotthárd,4497,9955,Szentgotthárd,,,0232/8,POINT (46.9827 16.2801),Szentgotthárd 0232/8 hrsz.,,,0.0,,False,06:00:00,06:00:00,06:00:00,06:00:00,06:00:00,06:00:00,06:00:00,22:00:00,22:00:00,22:00:00,22:00:00,22:00:00,22:00:00,22:00:00,,2018-06-14 18:06:55.196494+00:00,,,46.9827,16.2801,22,Mobil Petrol,fuel,"{'amenity': 'fuel', 'brand': 'Mobil Petrol', 'payment:cash': 'yes', 'payment:debit_cards': 'yes', 'fuel:diesel': 'yes', 'fuel:octane_95': 'yes'}",https://www.shell.hu,humobpefu
5366,5461,22,Nyúl,4061,9082,Nyúl,Nyúl 82. sz. főút,,,POINT (47.5955 17.6876),Nyúl  82. sz. főút,,,0.0,,True,,,,,,,,,,,,,,,,2018-06-14 18:06:55.196494+00:00,,,47.5955,17.6876,22,Mobil Petrol,fuel,"{'amenity': 'fuel', 'brand': 'Mobil Petrol', 'payment:cash': 'yes', 'payment:debit_cards': 'yes', 'fuel:diesel': 'yes', 'fuel:octane_95': 'yes'}",https://www.shell.hu,humobpefu
5367,5469,22,Bag,719,2191,Bag,,,2429/3,POINT (47.637 19.4718),Bag 2429/3 hrsz.  M3 motorway 39. km,,,0.0,,True,,,,,,,,,,,,,,,,2018-06-14 18:06:55.196494+00:00,,,47.637,19.4718,22,Mobil Petrol,fuel,"{'amenity': 'fuel', 'brand': 'Mobil Petrol', 'payment:cash': 'yes', 'payment:debit_cards': 'yes', 'fuel:diesel': 'yes', 'fuel:octane_95': 'yes'}",https://www.shell.hu,humobpefu
5368,5481,22,Vác,882,2600,Vác,,,,POINT (47.7565 19.1417),Vác  Szent László street 32.,,,0.0,,True,,,,,,,,,,,,,,,,2018-06-14 18:06:55.196494+00:00,,,47.7565,19.1417,22,Mobil Petrol,fuel,"{'amenity': 'fuel', 'brand': 'Mobil Petrol', 'payment:cash': 'yes', 'payment:debit_cards': 'yes', 'fuel:diesel': 'yes', 'fuel:octane_95': 'yes'}",https://www.shell.hu,humobpefu
